City_ID,City,Country,Date,Lat,Lng,Max Temp,Humidity,Cloudiness,Wind Speed,Weather description
0,Yellowknife,CA,2022-02-03 02:17:32,62.456,-114.3525,-27.71,83,20,5.75,few clouds
1,Provideniya,RU,2022-02-03 02:17:32,64.3833,-173.3,3.49,72,100,21.56,overcast clouds
2,Punta Arenas,CL,2022-02-03 02:17:33,-53.15,-70.9167,46.51,76,75,5.75,broken clouds
3,Hobart,AU,2022-02-03 02:17:34,-42.8794,147.3294,63.05,78,75,1.99,broken clouds
4,Vaini,TO,2022-02-03 02:16:18,-21.2,-175.2,86.16,74,20,8.05,few clouds
5,Port Elizabeth,ZA,2022-02-03 02:16:25,-33.918,25.5701,71.1,88,75,14.97,broken clouds
6,Murree,PK,2022-02-03 02:17:36,33.9073,73.393,31.24,93,100,4.88,snow
7,Hermanus,ZA,2022-02-03 02:17:37,-34.4187,19.2345,65.89,84,0,10.74,clear sky
8,Avarua,CK,2022-02-03 02:17:37,-21.2078,-159.775,84.25,74,75,17.27,broken clouds
9,Dunedin,NZ,2022-02-03 02:17:38,-45.8742,170.5036,59.81,90,100,3.0,light rain
10,Pangnirtung,CA,2022-02-03 02:17:38,66.1451,-65.7125,5.81,85,100,7.7,overcast clouds
11,San Felipe,VE,2022-02-03 02:17:39,10.3399,-68.7425,70.99,95,69,4.47,broken clouds
12,Codrington,AU,2022-02-03 02:17:39,-38.2667,141.9667,61.81,60,100,16.62,overcast clouds
13,Port Hardy,CA,2022-02-03 02:15:13,50.6996,-127.4199,37.58,93,100,16.11,light rain
14,Algodones,MX,2022-02-03 02:17:40,20.3888,-105.4773,66.74,84,0,2.46,clear sky
15,Rikitea,PF,2022-02-03 02:17:41,-23.1203,-134.9692,78.55,74,89,8.79,overcast clouds
16,Mataura,NZ,2022-02-03 02:17:41,-46.1927,168.8643,58.48,83,100,4.52,light rain
17,Ushuaia,AR,2022-02-03 02:13:17,-54.8,-68.3,35.1,90,9,1.48,clear sky
18,Port Alfred,ZA,2022-02-03 02:16:09,-33.5906,26.891,73.29,92,85,9.48,overcast clouds
19,Boyuibe,BO,2022-02-03 02:17:42,-20.4167,-63.2833,74.61,59,38,5.44,scattered clouds
20,Cap-Aux-Meules,CA,2022-02-03 02:17:43,47.3821,-61.8597,30.25,86,75,14.97,broken clouds
21,Raudeberg,NO,2022-02-03 02:17:43,61.9875,5.1352,34.47,73,100,5.99,overcast clouds
22,Lahad Datu,MY,2022-02-03 02:17:44,5.0268,118.327,82.96,68,84,3.85,broken clouds
23,New Norfolk,AU,2022-02-03 02:16:05,-42.7826,147.0587,63.91,81,96,5.21,overcast clouds
24,Saskylakh,RU,2022-02-03 02:17:45,71.9167,114.0833,-31.94,100,17,2.89,few clouds
25,Butaritari,KI,2022-02-03 02:16:15,3.0707,172.7902,81.7,78,100,15.68,light rain
26,Yulara,AU,2022-02-03 02:17:45,-25.2406,130.9889,73.24,43,100,16.11,overcast clouds
27,Mangai,CD,2022-02-03 02:17:46,-4.05,19.5333,71.46,90,100,0.47,overcast clouds
28,Margate,GB,2022-02-03 02:17:46,51.3813,1.3862,47.91,85,100,3.0,overcast clouds
29,Inta,RU,2022-02-03 02:17:47,66.0317,60.1659,14.14,96,100,5.44,light snow
30,Beloha,MG,2022-02-03 02:17:48,-25.1667,45.05,69.17,81,0,11.01,clear sky
31,Busselton,AU,2022-02-03 02:16:16,-33.65,115.3333,81.05,35,76,13.24,broken clouds
32,Pemba,MZ,2022-02-03 02:17:48,-12.974,40.5178,77.7,94,20,8.05,few clouds
33,Paso De Carrasco,UY,2022-02-03 02:17:49,-34.8603,-56.0522,76.24,78,0,11.5,clear sky
34,Shelburne,CA,2022-02-03 02:17:50,44.0787,-80.2041,25.12,95,100,10.47,overcast clouds
35,East London,ZA,2022-02-03 02:17:50,-33.0153,27.9116,73.96,93,99,7.87,light rain
36,Itoman,JP,2022-02-03 02:16:20,26.1247,127.6694,73.42,88,75,21.85,broken clouds
37,Zabaykalsk,RU,2022-02-03 02:17:51,49.6333,117.3167,-9.96,89,22,6.2,few clouds
38,Hualmay,PE,2022-02-03 02:17:51,-11.0964,-77.6139,70.5,80,81,9.84,broken clouds
39,Nizhniy Kuranakh,RU,2022-02-03 02:17:52,58.8353,125.4869,-8.16,93,100,6.53,overcast clouds
40,Ilulissat,GL,2022-02-03 02:17:53,69.2167,-51.1,1.42,46,20,28.77,few clouds
41,Turukhansk,RU,2022-02-03 02:17:53,65.8167,87.9833,-11.96,99,54,6.76,broken clouds
42,Oktyabrskoye,RU,2022-02-03 02:17:54,43.0645,44.7417,24.94,100,100,2.24,overcast clouds
43,Ponta Do Sol,PT,2022-02-03 02:17:54,32.6667,-17.1,67.71,78,100,11.27,overcast clouds
44,Pauini,BR,2022-02-03 02:17:55,-7.7136,-66.9764,71.33,99,100,0.63,overcast clouds
45,Sept-Iles,CA,2022-02-03 02:17:55,50.2001,-66.3821,28.92,94,100,3.0,overcast clouds
46,Atuona,PF,2022-02-03 02:17:57,-9.8,-139.0333,78.31,78,100,15.88,light rain
47,Mamlyutka,KZ,2022-02-03 02:17:58,54.9375,68.5394,14.32,96,94,7.0,overcast clouds
48,Souillac,MU,2022-02-03 02:17:58,-20.5167,57.5167,79.36,94,75,25.32,heavy intensity rain
49,Padang,ID,2022-02-03 02:18:59,-0.9492,100.3543,78.85,71,68,1.63,broken clouds
50,Mar Del Plata,AR,2022-02-03 02:18:59,-38.0023,-57.5575,74.08,94,100,3.0,moderate rain
51,Blagodarnyy,RU,2022-02-03 02:19:00,45.0978,43.4364,34.34,88,83,4.56,broken clouds
52,San Policarpo,PH,2022-02-03 02:19:00,12.1791,125.5072,80.33,83,99,15.52,overcast clouds
53,Chuy,UY,2022-02-03 02:19:01,-33.6971,-53.4616,71.06,87,0,11.27,moderate rain
54,Mount Darwin,ZW,2022-02-03 02:19:01,-16.7725,31.5838,65.86,97,94,1.83,overcast clouds
55,Torit,SS,2022-02-03 02:19:02,4.4133,32.5678,78.44,33,100,1.16,overcast clouds
56,Mitchell,US,2022-02-03 02:19:02,43.7094,-98.0298,4.1,56,75,7.0,broken clouds
57,Havre-Saint-Pierre,CA,2022-02-03 02:19:03,50.2334,-63.5986,28.99,93,100,10.36,overcast clouds
58,Tuktoyaktuk,CA,2022-02-03 02:19:04,69.4541,-133.0374,-20.2,69,75,13.8,light snow
59,Saldanha,ZA,2022-02-03 02:19:04,-33.0117,17.9442,63.01,90,0,8.39,clear sky
60,Albany,US,2022-02-03 02:17:14,42.6001,-73.9662,41.81,82,100,4.07,overcast clouds
61,Dikson,RU,2022-02-03 02:16:10,73.5069,80.5464,-5.93,96,100,13.13,overcast clouds
62,Adrar,MR,2022-02-03 02:19:05,20.5022,-10.0711,65.08,19,0,11.32,clear sky
63,Cape Town,ZA,2022-02-03 02:17:51,-33.9258,18.4232,66.61,87,40,3.0,scattered clouds
64,Cidreira,BR,2022-02-03 02:15:06,-30.1811,-50.2056,75.61,87,5,19.53,clear sky
65,Elizabeth City,US,2022-02-03 02:19:06,36.2946,-76.2511,45.01,93,20,3.44,few clouds
66,Bundaberg,AU,2022-02-03 02:19:07,-24.85,152.35,88.21,69,40,3.0,scattered clouds
67,Elumalai,IN,2022-02-03 02:19:07,9.8667,77.7,72.5,73,1,1.34,clear sky
68,Kapaa,US,2022-02-03 02:19:08,22.0752,-159.319,78.78,68,0,8.05,clear sky
69,Bereda,ES,2022-02-03 02:19:08,43.2686,-7.5406,45.41,96,97,1.86,overcast clouds
70,Talnakh,RU,2022-02-03 02:19:09,69.4865,88.3972,-9.27,99,100,6.46,overcast clouds
71,Nanortalik,GL,2022-02-03 02:19:09,60.1432,-45.2371,15.82,65,100,10.04,overcast clouds
72,Kobyzhcha,UA,2022-02-03 02:19:10,50.8285,31.5044,31.91,97,98,5.68,overcast clouds
73,Kudahuvadhoo,MV,2022-02-03 02:19:10,2.6708,72.8944,81.37,72,2,8.32,clear sky
74,Sao Gabriel Da Cachoeira,BR,2022-02-03 02:19:11,-0.1303,-67.0892,72.9,98,100,2.26,overcast clouds
75,Saint-Philippe,RE,2022-02-03 02:15:03,-21.3585,55.7679,78.39,93,100,32.82,heavy intensity rain
76,Bac Lieu,VN,2022-02-03 02:19:12,9.285,105.7244,82.31,70,73,17.16,broken clouds
77,Mount Gambier,AU,2022-02-03 02:19:12,-37.8333,140.7667,66.11,48,46,12.8,scattered clouds
78,Bambous Virieux,MU,2022-02-03 02:19:13,-20.3428,57.7575,79.21,94,75,25.32,heavy intensity rain
79,Nikolskoye,RU,2022-02-03 02:16:13,59.7035,30.7861,17.49,100,94,1.63,light snow
80,Porto Santo,PT,2022-02-03 02:19:13,33.072,-16.3415,66.31,88,40,9.22,scattered clouds
81,Portland,US,2022-02-03 02:18:58,45.5234,-122.6762,46.15,95,100,1.99,mist
82,Luoyang,CN,2022-02-03 02:19:14,34.6836,112.4536,37.83,58,100,2.91,overcast clouds
83,Cabo San Lucas,MX,2022-02-03 02:14:47,22.8909,-109.9124,72.52,69,100,6.91,overcast clouds
84,Comodoro Rivadavia,AR,2022-02-03 02:18:07,-45.8667,-67.5,73.26,33,0,5.75,clear sky
85,Kodiak,US,2022-02-03 02:16:12,57.79,-152.4072,38.71,87,100,13.8,light rain
86,Lavrentiya,RU,2022-02-03 02:19:16,65.5833,-171.0,1.36,64,1,21.3,clear sky
87,Semporna,MY,2022-02-03 02:19:16,4.4818,118.6112,86.2,74,80,5.66,broken clouds
88,Muros,ES,2022-02-03 02:19:17,42.7762,-9.0603,47.84,90,100,8.23,overcast clouds
89,Alakurtti,RU,2022-02-03 02:19:17,66.9672,30.3491,7.65,95,100,3.65,overcast clouds
90,Fort Myers,US,2022-02-03 02:16:38,26.6217,-81.8406,69.94,71,0,8.05,clear sky
91,Anloga,GH,2022-02-03 02:19:18,5.7947,0.8973,80.26,80,17,9.91,few clouds
92,Vila Franca Do Campo,PT,2022-02-03 02:19:19,37.7167,-25.4333,60.19,81,42,8.08,scattered clouds
93,College,US,2022-02-03 02:17:04,64.8569,-147.8028,-20.0,69,20,0.0,few clouds
94,Vostok,RU,2022-02-03 02:19:19,46.4856,135.8833,2.43,83,100,5.99,overcast clouds
95,Khatanga,RU,2022-02-03 02:19:20,71.9667,102.5,-35.68,99,35,2.19,scattered clouds
96,Tasiilaq,GL,2022-02-03 02:14:55,65.6145,-37.6368,10.56,79,97,6.42,overcast clouds
97,Opuwo,NA,2022-02-03 02:20:21,-18.0607,13.84,61.68,65,4,2.91,clear sky
98,Qaanaaq,GL,2022-02-03 02:16:26,77.484,-69.3632,-10.62,82,100,6.8,overcast clouds
99,Bethel,US,2022-02-03 02:20:25,41.3712,-73.414,39.33,89,100,0.0,overcast clouds
100,Shenjiamen,CN,2022-02-03 02:20:25,29.9576,122.298,45.86,70,100,15.55,moderate rain
101,Vallenar,CL,2022-02-03 02:20:26,-28.5708,-70.7581,68.59,60,0,2.21,clear sky
102,Sinamar,PH,2022-02-03 02:20:26,16.9,121.5667,75.58,76,3,1.7,clear sky
103,Leh,IN,2022-02-03 02:20:27,34.1667,77.5833,9.82,93,100,2.21,light snow
104,Chokurdakh,RU,2022-02-03 02:20:27,70.6333,147.9167,-21.75,98,86,6.76,overcast clouds
105,Touros,BR,2022-02-03 02:20:28,-5.1989,-35.4608,79.7,77,49,11.45,scattered clouds
106,Jiaocheng,CN,2022-02-03 02:20:28,24.6774,116.1389,46.22,95,100,1.88,light rain
107,Coari,BR,2022-02-03 02:20:30,-4.085,-63.1414,74.12,98,100,2.44,light rain
108,Tambun,ID,2022-02-03 02:20:30,-6.2641,107.0712,88.41,74,40,5.75,haze
109,Vestmannaeyjar,IS,2022-02-03 02:20:31,63.4427,-20.2734,30.02,78,99,13.24,overcast clouds
110,Airai,TL,2022-02-03 02:19:11,-8.9266,125.4092,69.55,70,99,4.14,overcast clouds
111,Artyom,AZ,2022-02-03 02:20:31,40.4723,50.333,48.34,75,92,20.02,overcast clouds
112,Stromness,GB,2022-02-03 02:20:32,58.965,-3.296,46.65,93,100,24.14,light rain
113,Bluff,NZ,2022-02-03 02:20:32,-46.6,168.3333,58.8,63,100,16.87,overcast clouds
114,Moose Factory,CA,2022-02-03 02:20:33,51.2585,-80.6094,-16.6,76,0,5.75,clear sky
115,Teberda,RU,2022-02-03 02:20:33,43.4456,41.7448,30.16,72,38,8.59,scattered clouds
116,Kruisfontein,ZA,2022-02-03 02:20:34,-34.0033,24.7314,68.88,86,100,10.31,overcast clouds
117,Apango,MX,2022-02-03 02:20:34,17.7333,-99.3333,74.25,65,33,8.9,scattered clouds
118,Mount Isa,AU,2022-02-03 02:20:35,-20.7333,139.5,83.97,70,75,11.5,broken clouds
119,Sola,VU,2022-02-03 02:20:35,-13.8833,167.55,81.32,76,100,10.2,overcast clouds
120,Whitehorse,CA,2022-02-03 02:20:36,60.7161,-135.0538,-4.7,68,75,4.0,broken clouds
121,Kieta,PG,2022-02-03 02:20:36,-6.2167,155.6333,81.55,83,100,14.43,moderate rain
122,Upernavik,GL,2022-02-03 02:20:25,72.7868,-56.1549,-8.57,66,100,8.3,overcast clouds
123,Green River,US,2022-02-03 02:20:14,41.5286,-109.4662,12.97,40,48,7.0,scattered clouds
124,Orumiyeh,IR,2022-02-03 02:20:37,37.5527,45.0761,22.55,80,100,4.61,overcast clouds
125,Barrow,US,2022-02-03 02:18:04,71.2906,-156.7887,-20.18,69,75,0.0,broken clouds
126,San Patricio,US,2022-02-03 02:20:38,28.017,-97.5169,72.01,80,100,6.06,overcast clouds
127,Sambava,MG,2022-02-03 02:20:38,-14.2667,50.1667,74.41,86,100,3.62,overcast clouds
128,Puerto Ayora,EC,2022-02-03 02:20:39,-0.7393,-90.3518,74.55,93,0,1.99,clear sky
129,Hithadhoo,MV,2022-02-03 02:20:40,-0.6,73.0833,81.36,70,8,3.27,clear sky
130,Kaitangata,NZ,2022-02-03 02:20:40,-46.2817,169.8464,53.71,96,100,3.58,overcast clouds
131,Chapais,CA,2022-02-03 02:20:40,49.7834,-74.8492,6.58,92,100,7.92,overcast clouds
132,Rawson,AR,2022-02-03 02:20:41,-43.3002,-65.1023,67.51,55,79,7.65,broken clouds
133,Bikaner,IN,2022-02-03 02:20:41,28.0167,73.3,56.32,57,0,14.0,clear sky
134,Victoria,HK,2022-02-03 02:20:04,22.2855,114.1577,56.32,81,100,4.0,light rain
135,Sompeta,IN,2022-02-03 02:20:42,18.9333,84.6,71.31,80,22,5.23,few clouds
136,Tianpeng,CN,2022-02-03 02:20:42,30.9866,103.9393,37.87,71,8,1.95,clear sky
137,Vardo,NO,2022-02-03 02:20:43,70.3705,31.1107,29.57,56,100,19.44,light snow
138,Oktyabrskiy,RU,2022-02-03 02:20:43,54.4815,53.471,28.36,95,100,14.23,light snow
139,Bilma,NE,2022-02-03 02:19:58,18.6853,12.9164,54.09,29,0,14.23,clear sky
140,Bredasdorp,ZA,2022-02-03 02:20:44,-34.5322,20.0403,59.29,80,0,6.17,clear sky
141,Petropavlovsk-Kamchatskiy,RU,2022-02-03 02:20:45,53.0452,158.6483,30.79,64,75,13.42,broken clouds
142,Yining,CN,2022-02-03 02:21:45,29.0361,114.5636,37.33,89,100,0.81,overcast clouds
143,Domoni,KM,2022-02-03 02:21:46,-12.2569,44.5319,79.16,85,57,5.37,light rain
144,Sitka,US,2022-02-03 02:21:46,57.0531,-135.33,37.29,100,100,4.61,mist
145,Srednekolymsk,RU,2022-02-03 02:21:47,67.45,153.6833,-22.5,98,100,2.04,overcast clouds
146,Jamestown,US,2022-02-03 02:20:24,42.097,-79.2353,38.52,60,100,4.0,light rain
147,Hilo,US,2022-02-03 02:20:51,19.7297,-155.09,77.25,76,100,10.36,overcast clouds
148,Farafangana,MG,2022-02-03 02:21:48,-22.8167,47.8333,73.29,80,41,6.42,scattered clouds
149,Botwood,CA,2022-02-03 02:21:48,49.1499,-55.3482,23.9,78,73,13.62,broken clouds
150,Sorland,NO,2022-02-03 02:21:49,67.667,12.6934,27.75,58,100,10.31,overcast clouds
151,Mabopane,ZA,2022-02-03 02:21:50,-25.4977,28.1007,73.15,50,1,4.97,clear sky
152,Atasu,KZ,2022-02-03 02:18:35,48.6814,71.6433,9.09,84,100,5.23,overcast clouds
153,Dobric,RS,2022-02-03 02:21:51,44.7019,19.5814,39.09,80,86,10.98,overcast clouds
154,Georgetown,MY,2022-02-03 02:19:10,5.4112,100.3354,85.93,83,20,1.01,few clouds
155,Chambersburg,US,2022-02-03 02:21:52,39.9376,-77.6611,43.41,71,100,1.01,overcast clouds
156,Saint Anthony,US,2022-02-03 02:21:52,45.0205,-93.218,2.25,62,0,4.0,clear sky
157,Leningradskiy,RU,2022-02-03 02:21:53,69.3833,178.4167,-13.22,93,25,9.55,scattered clouds
158,Taltal,CL,2022-02-03 02:20:20,-25.4,-70.4833,68.47,72,0,3.18,clear sky
159,Ola,RU,2022-02-03 02:21:53,59.5833,151.2833,13.57,76,100,10.92,overcast clouds
160,Tessalit,ML,2022-02-03 02:21:54,20.1986,1.0114,58.89,15,16,11.34,few clouds
161,Negara,ID,2022-02-03 02:21:54,-8.3151,114.6025,83.95,67,10,0.85,clear sky
162,Faanui,PF,2022-02-03 02:21:55,-16.4833,-151.75,81.37,76,11,18.25,few clouds
163,Belmonte,BR,2022-02-03 02:21:55,-15.8631,-38.8828,79.3,81,100,5.93,overcast clouds
164,Moron,AR,2022-02-03 02:21:56,-34.6534,-58.6198,80.98,70,100,5.91,light rain
165,Kuantan,MY,2022-02-03 02:21:57,3.8077,103.326,82.51,78,20,6.91,light rain
166,Berlevag,NO,2022-02-03 02:21:57,70.8578,29.0864,26.8,65,100,13.06,light snow
167,Kavaratti,IN,2022-02-03 02:21:58,10.5669,72.642,79.72,71,13,9.62,few clouds
168,Elko,US,2022-02-03 02:21:58,41.0002,-115.5012,23.02,50,68,4.0,broken clouds
169,Saint-Joseph,RE,2022-02-03 02:21:59,-21.3667,55.6167,77.38,91,100,31.9,heavy intensity rain
170,Juneau,US,2022-02-03 02:21:59,58.3019,-134.4197,28.85,93,100,6.91,mist
171,Port Lincoln,AU,2022-02-03 02:22:00,-34.7333,135.8667,66.63,56,43,15.41,scattered clouds
172,Progreso,MX,2022-02-03 02:22:01,21.2833,-89.6667,82.51,63,1,12.37,clear sky
173,Ancud,CL,2022-02-03 02:18:41,-41.8697,-73.8203,57.42,90,75,3.67,broken clouds
174,Abu Dhabi,AE,2022-02-03 02:20:25,24.4667,54.3667,64.96,75,0,2.3,clear sky
175,Sur,OM,2022-02-03 02:22:02,22.5667,59.5289,70.65,57,1,18.25,clear sky
176,Mabaruma,GY,2022-02-03 02:22:03,8.2,-59.7833,73.45,87,0,3.31,clear sky
177,Kalabo,ZM,2022-02-03 02:22:04,-14.97,22.6814,66.54,96,100,3.94,moderate rain
178,Nova Venecia,BR,2022-02-03 02:22:05,-18.7106,-40.4006,73.9,96,90,1.77,overcast clouds
179,Xianyang,CN,2022-02-03 02:21:02,34.3378,108.7026,33.04,64,53,8.95,broken clouds
180,Palmer,US,2022-02-03 02:22:06,42.1584,-72.3287,39.51,81,75,0.0,broken clouds
181,Grand Gaube,MU,2022-02-03 02:22:06,-20.0064,57.6608,79.38,87,100,20.0,light rain
182,La Ronge,CA,2022-02-03 02:22:07,55.1001,-105.2842,-21.75,69,0,3.44,clear sky
183,Namibe,AO,2022-02-03 02:22:08,-15.1961,12.1522,71.26,73,44,8.03,scattered clouds
184,Isangel,VU,2022-02-03 02:22:08,-19.55,169.2667,89.71,70,75,4.61,broken clouds
185,Te Anau,NZ,2022-02-03 02:22:09,-45.4167,167.7167,60.93,79,100,3.87,overcast clouds
186,Alice Springs,AU,2022-02-03 02:23:08,-23.7,133.8833,71.15,60,100,16.11,overcast clouds
187,Mahebourg,MU,2022-02-03 02:23:10,-20.4081,57.7,79.25,94,75,25.32,heavy intensity rain
188,Dabat,ET,2022-02-03 02:23:10,12.9842,37.765,53.04,64,22,3.8,few clouds
189,Bogovarovo,RU,2022-02-03 02:23:11,58.9785,47.0246,11.79,99,100,5.01,overcast clouds
190,Tommot,RU,2022-02-03 02:23:11,58.9564,126.2925,-7.53,92,100,8.3,overcast clouds
191,Pervomayskoye,RU,2022-02-03 02:23:12,43.919,46.7102,38.05,95,59,7.34,broken clouds
192,Arraial Do Cabo,BR,2022-02-03 02:19:21,-22.9661,-42.0278,75.4,88,100,4.12,overcast clouds
193,Thompson,CA,2022-02-03 02:23:12,55.7435,-97.8558,-14.64,76,20,13.8,few clouds
194,Bairiki,KI,2022-02-03 02:23:13,1.3292,172.9752,84.2,84,20,2.3,light rain
195,Narsaq,GL,2022-02-03 02:23:14,60.9167,-46.05,5.22,59,100,13.89,overcast clouds
196,Carnarvon,AU,2022-02-03 02:23:14,-24.8667,113.6333,98.67,26,6,17.27,clear sky
197,Vao,NC,2022-02-03 02:21:12,-22.6667,167.4833,78.76,71,100,9.01,overcast clouds
198,Sao Filipe,CV,2022-02-03 02:23:15,14.8961,-24.4956,73.78,75,0,11.88,clear sky
199,Ambilobe,MG,2022-02-03 02:23:15,-13.2,49.05,72.82,95,100,1.66,overcast clouds
200,Hobyo,SO,2022-02-03 02:23:16,5.3505,48.5268,77.59,73,100,17.74,overcast clouds
201,Gimli,CA,2022-02-03 02:23:16,50.6336,-96.9907,-16.58,63,17,4.61,few clouds
202,Duiwelskloof,ZA,2022-02-03 02:23:17,-23.6934,30.14,68.05,70,7,4.56,clear sky
203,Brigantine,US,2022-02-03 02:23:17,39.4101,-74.3646,43.0,97,94,3.62,overcast clouds
204,Lata,PT,2022-02-03 02:23:18,40.1629,-8.3327,45.05,77,92,1.03,overcast clouds
205,Tecoanapa,MX,2022-02-03 02:23:18,16.5167,-98.75,76.1,68,0,6.11,clear sky
206,Praya,CV,2022-02-03 02:23:19,14.9215,-23.5087,73.94,56,2,21.85,clear sky
207,Marsh Harbour,BS,2022-02-03 02:23:19,26.5412,-77.0636,71.01,70,53,20.74,broken clouds
208,Churapcha,RU,2022-02-03 02:23:20,62.0025,132.4325,-26.95,95,100,2.24,overcast clouds
209,Kathu,TH,2022-02-03 02:23:21,7.9178,98.3332,85.62,75,91,12.35,overcast clouds
210,Hasaki,JP,2022-02-03 02:20:45,35.7333,140.8333,50.29,40,100,8.88,overcast clouds
211,Mutis,CO,2022-02-03 02:23:22,6.2262,-77.4044,77.85,84,8,1.68,clear sky
212,Matay,EG,2022-02-03 02:23:22,28.419,30.7792,53.35,36,0,9.15,clear sky
213,Biloela,AU,2022-02-03 02:23:23,-24.4167,150.5,81.59,71,97,10.31,overcast clouds
214,Flinders,AU,2022-02-03 02:23:23,-34.5833,150.8552,72.81,63,66,16.33,broken clouds
215,Marawi,PH,2022-02-03 02:23:24,7.9986,124.2928,72.64,72,100,3.18,overcast clouds
216,Chara,RU,2022-02-03 02:23:24,56.9064,118.2631,-18.0,89,84,1.16,broken clouds
217,Pontianak,ID,2022-02-03 02:23:25,-0.0333,109.3333,82.38,78,20,3.44,few clouds
218,Beringovskiy,RU,2022-02-03 02:23:26,63.05,179.3167,8.62,76,100,23.44,overcast clouds
219,Saint George,US,2022-02-03 02:20:43,37.1041,-113.5841,38.62,22,0,1.01,clear sky
220,Kilimatinde,TZ,2022-02-03 02:23:26,-5.85,34.95,63.46,96,100,3.15,overcast clouds
221,Ribeira Grande,PT,2022-02-03 02:23:27,38.5167,-28.7,59.31,71,14,5.3,few clouds
222,Tena,EC,2022-02-03 02:23:27,-0.9833,-77.8167,70.21,91,99,2.84,overcast clouds
223,Cumra,TR,2022-02-03 02:23:28,37.5732,32.7745,35.74,92,96,8.86,overcast clouds
224,Mandurah,AU,2022-02-03 02:23:28,-32.55,115.7,89.15,36,0,14.97,clear sky
225,Kiama,AU,2022-02-03 02:23:29,-34.6833,150.8667,73.0,65,87,17.31,overcast clouds
226,Awjilah,LY,2022-02-03 02:23:29,29.1081,21.2869,50.63,66,15,20.27,few clouds
227,Tiksi,RU,2022-02-03 02:23:30,71.6872,128.8694,-3.53,93,100,11.05,overcast clouds
228,Kenora,CA,2022-02-03 02:23:31,49.8167,-94.4337,-13.83,70,0,10.36,clear sky
229,Phan Thiet,VN,2022-02-03 02:20:11,10.9333,108.1,83.77,54,49,6.85,scattered clouds
230,Salalah,OM,2022-02-03 02:23:31,17.0151,54.0924,75.29,23,0,6.91,clear sky
231,Gogrial,SS,2022-02-03 02:23:32,8.5332,28.1004,74.08,25,19,5.03,few clouds
232,Sao Goncalo Do Amarante,BR,2022-02-03 02:23:33,-3.6072,-38.9683,81.12,89,94,5.66,overcast clouds
233,Odweyne,SO,2022-02-03 02:24:33,9.4092,45.064,63.75,40,2,8.95,clear sky
234,Burns Lake,CA,2022-02-03 02:24:34,54.2331,-125.7533,4.42,99,89,2.95,overcast clouds
235,Lasa,IT,2022-02-03 02:24:34,46.6166,10.7002,38.28,94,48,8.16,scattered clouds
236,Los Llanos De Aridane,ES,2022-02-03 02:24:35,28.6585,-17.9182,69.12,53,0,10.0,clear sky
237,Husavik,IS,2022-02-03 02:24:35,66.0449,-17.3389,6.71,95,93,2.26,light snow
238,Kose,TR,2022-02-03 02:24:36,40.21,39.6511,36.16,98,74,5.46,broken clouds
239,Hovd,MN,2022-02-03 02:24:36,48.0056,91.6419,-5.73,96,89,1.77,overcast clouds
240,San Juan Bautista,PE,2022-02-03 02:24:37,-14.0108,-75.7358,63.23,56,7,2.68,clear sky
241,Ponta Delgada,PT,2022-02-03 02:24:38,37.7333,-25.6667,60.49,77,20,8.05,few clouds
242,Auki,SB,2022-02-03 02:24:38,-8.7676,160.7034,77.81,91,100,9.75,light rain
243,Omsukchan,RU,2022-02-03 02:24:39,62.5333,155.8,-9.98,95,73,7.49,broken clouds
244,Kirovskiy,RU,2022-02-03 02:21:07,45.0917,133.5136,5.61,87,100,7.7,overcast clouds
245,Loei,TH,2022-02-03 02:24:39,17.4167,101.5,63.77,75,80,3.71,broken clouds
246,Neuquen,AR,2022-02-03 02:24:40,-38.9516,-68.0591,78.69,44,40,3.44,scattered clouds
247,Kalabagh,PK,2022-02-03 02:24:41,32.965,71.557,50.11,69,8,6.44,clear sky
248,Half Moon Bay,US,2022-02-03 02:24:41,37.4636,-122.4286,60.31,51,0,6.91,haze
249,Xining,CN,2022-02-03 02:23:39,36.6167,101.7667,15.37,52,4,2.28,clear sky
250,Phayao,TH,2022-02-03 02:24:42,19.25,100.25,70.68,40,5,2.19,clear sky
251,Hofn,IS,2022-02-03 02:24:42,64.2539,-15.2082,30.97,57,100,7.83,overcast clouds
252,Bichena,ET,2022-02-03 02:24:43,10.45,38.2,56.84,60,100,2.46,overcast clouds
253,Winsum,NL,2022-02-03 02:24:43,53.33,6.5208,47.21,95,100,13.62,overcast clouds
254,Nome,US,2022-02-03 02:22:26,64.5011,-165.4064,10.47,57,0,32.21,clear sky
255,Saint-Francois,FR,2022-02-03 02:24:44,46.4154,3.9054,41.41,99,75,1.14,broken clouds
256,Ler,SS,2022-02-03 02:24:45,8.3018,30.1418,76.14,26,85,5.17,overcast clouds
257,Mitsamiouli,KM,2022-02-03 02:24:46,-11.3847,43.2844,81.41,78,99,8.03,overcast clouds
258,Coihaique,CL,2022-02-03 02:24:46,-45.5752,-72.0662,58.95,77,100,6.91,overcast clouds
259,Maragheh,IR,2022-02-03 02:24:46,37.3917,46.2398,23.27,80,0,2.3,clear sky
260,Torbay,CA,2022-02-03 02:24:47,47.6666,-52.7314,23.29,91,20,10.36,few clouds
261,Iqaluit,CA,2022-02-03 02:24:48,63.7506,-68.5145,8.33,84,75,10.0,light snow
262,Laguna,US,2022-02-03 02:24:48,38.421,-121.4238,56.34,39,0,5.01,clear sky
263,Srandakan,ID,2022-02-03 02:24:49,-7.9386,110.2506,84.67,62,49,2.77,scattered clouds
264,Riverton,US,2022-02-03 02:24:49,40.5219,-111.9391,24.37,69,0,1.99,clear sky
265,Madang,PG,2022-02-03 02:24:50,-5.2246,145.7966,85.57,62,84,3.02,broken clouds
266,Port-Cartier,CA,2022-02-03 02:20:46,50.0334,-66.8654,28.62,97,100,10.18,light snow
267,Lebu,CL,2022-02-03 02:24:50,-37.6167,-73.65,59.9,89,83,10.45,broken clouds
268,Bambari,CF,2022-02-03 02:24:51,5.768,20.6757,73.92,22,18,2.39,few clouds
269,Pishin,PK,2022-02-03 02:24:51,30.5803,66.9961,35.06,77,2,5.99,clear sky
270,Yar-Sale,RU,2022-02-03 02:24:52,66.8333,70.8333,4.66,96,100,10.92,light snow
271,Khutar,IN,2022-02-03 02:24:52,28.2,80.2833,52.83,77,56,11.05,broken clouds
272,Hervey Bay,AU,2022-02-03 02:24:53,-25.2986,152.8535,88.03,78,100,10.56,overcast clouds
273,Yumen,CN,2022-02-03 02:24:53,40.2833,97.2,21.2,44,30,5.59,scattered clouds
274,Tomatlan,MX,2022-02-03 02:24:54,19.9333,-105.25,63.57,85,0,2.51,clear sky
275,Thunder Bay,CA,2022-02-03 02:20:33,48.4001,-89.3168,-4.45,56,0,9.22,clear sky
276,Noumea,NC,2022-02-03 02:24:55,-22.2763,166.4572,87.78,62,38,10.0,scattered clouds
277,Alofi,NU,2022-02-03 02:24:55,-19.0595,-169.9187,82.29,74,40,17.27,scattered clouds
278,Emba,KZ,2022-02-03 02:24:09,48.8264,58.1442,10.78,92,26,6.87,scattered clouds
279,Castro,BR,2022-02-03 02:25:07,-24.7911,-50.0119,63.0,98,2,6.06,clear sky
280,Luyang,CN,2022-02-03 02:25:56,27.6239,110.0989,35.65,88,100,1.52,overcast clouds
281,Hami,CN,2022-02-03 02:25:57,42.8,93.45,22.19,37,93,0.76,overcast clouds
282,Tahe,CN,2022-02-03 02:25:57,52.3333,124.7333,0.39,63,10,10.0,clear sky
283,Poum,NC,2022-02-03 02:25:58,-20.2333,164.0167,80.46,72,0,0.87,clear sky
284,Verkhnetulomskiy,RU,2022-02-03 02:25:58,68.6073,31.7962,3.33,99,100,1.19,overcast clouds
285,Coquimbo,CL,2022-02-03 02:25:59,-29.9533,-71.3436,62.33,88,20,5.75,few clouds
286,Longhua,CN,2022-02-03 02:25:59,23.6137,114.1919,50.65,87,97,4.32,light rain
287,Puerto Montt,CL,2022-02-03 02:25:59,-41.4698,-72.9447,59.83,88,100,6.91,overcast clouds
288,Xinqing,CN,2022-02-03 02:26:00,48.2333,129.5,1.78,78,65,7.23,broken clouds
289,Cherskiy,RU,2022-02-03 02:26:00,68.75,161.3,-15.86,75,68,2.06,broken clouds
290,Zhicheng,CN,2022-02-03 02:26:01,30.2956,111.5047,41.81,58,97,0.11,overcast clouds
291,Mao,ES,2022-02-03 02:26:01,39.8885,4.2658,48.76,93,0,6.91,clear sky
292,Esmeraldas,BR,2022-02-03 02:26:02,-19.7625,-44.3139,70.66,92,100,2.51,overcast clouds
293,Esperance,AU,2022-02-03 02:26:03,-33.8667,121.9,75.04,50,5,14.81,clear sky
294,Hokitika,NZ,2022-02-03 02:26:03,-42.7167,170.9667,66.15,99,100,9.57,overcast clouds
295,Brae,GB,2022-02-03 02:26:04,60.3964,-1.353,44.51,95,100,12.26,overcast clouds
296,Carutapera,BR,2022-02-03 02:26:04,-1.195,-46.02,76.5,91,100,6.98,overcast clouds
297,Horta,PT,2022-02-03 02:26:05,38.5333,-28.6333,58.3,72,29,5.91,scattered clouds
298,Snezhnogorsk,RU,2022-02-03 02:26:05,69.1933,33.2531,2.98,97,100,3.18,light snow
299,Egvekinot,RU,2022-02-03 02:26:06,66.3167,-179.1667,-8.34,78,7,20.33,clear sky
300,Kavieng,PG,2022-02-03 02:23:32,-2.5744,150.7967,79.5,82,100,14.32,overcast clouds
301,Nykoping,SE,2022-02-03 02:26:07,58.753,17.0079,25.09,86,75,4.61,broken clouds
302,Dalvik,IS,2022-02-03 02:26:07,65.9702,-18.5286,6.73,86,88,3.91,overcast clouds
303,Komsomolskiy,UZ,2022-02-03 02:26:02,40.4272,71.7189,32.72,80,99,6.91,overcast clouds
304,Port Macquarie,AU,2022-02-03 02:26:08,-31.4333,152.9167,67.89,100,100,10.36,overcast clouds
305,Tuatapere,NZ,2022-02-03 02:22:50,-46.1333,167.6833,58.82,66,100,9.37,overcast clouds
306,Lostice,CZ,2022-02-03 02:26:09,49.7447,16.9289,38.37,75,37,6.69,scattered clouds
307,Zhuanghe,CN,2022-02-03 02:26:09,39.7008,122.9911,22.68,44,1,5.66,clear sky
308,Luderitz,NA,2022-02-03 02:22:53,-26.6481,15.1594,67.53,79,66,4.23,broken clouds
309,Arroyo,ES,2022-02-03 02:26:10,41.6096,-4.7969,46.18,62,0,4.61,clear sky
310,Nouakchott,MR,2022-02-03 02:26:10,18.0858,-15.9785,75.13,29,0,10.67,clear sky
311,Batagay-Alyta,RU,2022-02-03 02:26:11,67.8006,130.4114,-24.65,97,66,3.31,broken clouds
312,Rodeo,US,2022-02-03 02:26:11,38.033,-122.2669,60.51,33,0,1.01,clear sky
313,Benito Juarez,MX,2022-02-03 02:26:12,19.385,-99.165,66.0,47,0,1.99,clear sky
314,Quang Ngai,VN,2022-02-03 02:24:40,15.1167,108.8,73.2,84,97,6.02,overcast clouds
315,Guerrero Negro,MX,2022-02-03 02:26:13,27.9769,-114.0611,61.43,30,0,16.71,clear sky
316,Anadyr,RU,2022-02-03 02:26:13,64.75,177.4833,14.5,66,0,22.37,clear sky
317,Tarko-Sale,RU,2022-02-03 02:26:14,64.9225,77.785,1.17,96,100,15.88,light snow
318,Peleduy,RU,2022-02-03 02:26:14,59.6289,112.7406,-4.76,97,100,4.81,overcast clouds
319,Haimen,CN,2022-02-03 02:26:14,23.1935,116.6142,51.69,89,100,10.67,overcast clouds
320,Faya,SA,2022-02-03 02:26:15,18.3851,42.4509,51.91,70,51,1.86,broken clouds
321,Kindu,CD,2022-02-03 02:26:15,-2.95,25.95,69.35,93,100,1.05,overcast clouds
322,Panaba,MX,2022-02-03 02:26:16,21.2833,-88.2667,74.48,82,2,11.63,clear sky
323,Panguna,PG,2022-02-03 02:26:16,-6.3164,155.4848,74.5,88,100,3.74,moderate rain
324,Bakchar,RU,2022-02-03 02:26:17,57.0186,82.0711,2.64,99,99,5.26,overcast clouds
325,Krasnoselkup,RU,2022-02-03 02:26:17,65.7,82.4667,-11.34,98,100,9.06,overcast clouds
326,Roncesvalles,CO,2022-02-03 02:26:18,4.0108,-75.6049,49.98,85,100,2.3,overcast clouds
327,Bodden Town,KY,2022-02-03 02:26:18,19.2833,-81.25,78.01,80,20,4.0,few clouds
328,Wiarton,CA,2022-02-03 02:27:19,44.7407,-81.1332,23.61,93,100,5.75,overcast clouds
329,Sisimiut,GL,2022-02-03 02:27:19,66.9395,-53.6735,2.39,73,100,20.54,overcast clouds
330,Tual,ID,2022-02-03 02:27:20,-5.6667,132.75,82.22,77,95,11.07,overcast clouds
331,Neyshabur,IR,2022-02-03 02:27:20,36.2133,58.7958,36.64,44,0,1.39,clear sky
332,Inirida,CO,2022-02-03 02:27:21,3.8653,-67.9239,76.37,79,34,1.92,heavy intensity rain
333,Hamilton,US,2022-02-03 02:27:05,39.1834,-84.5333,46.78,96,100,1.01,light rain
334,Mandalgovi,MN,2022-02-03 02:27:21,45.7625,106.2708,2.73,73,0,10.6,clear sky
335,Aitape,PG,2022-02-03 02:27:22,-3.1374,142.3475,79.72,83,98,3.83,overcast clouds
336,Honningsvag,NO,2022-02-03 02:27:23,70.9821,25.9704,26.64,74,100,9.69,overcast clouds
337,Belyy Yar,RU,2022-02-03 02:27:23,53.6039,91.3903,-19.14,91,40,2.24,mist
338,Portales,US,2022-02-03 02:27:24,34.1862,-103.3344,14.09,68,97,8.01,overcast clouds
339,Orel-Izumrud,RU,2022-02-03 02:27:24,43.4583,39.9244,51.82,53,100,11.01,overcast clouds
340,Paamiut,GL,2022-02-03 02:27:25,61.994,-49.6678,16.3,78,100,20.85,overcast clouds
341,Mecca,SA,2022-02-03 02:27:25,21.4267,39.8261,68.22,73,1,1.19,clear sky
342,Stawell,AU,2022-02-03 02:27:26,-37.05,142.7667,67.44,39,4,19.1,clear sky
343,Sar-E Pul,AF,2022-02-03 02:27:26,35.8333,66.1667,23.65,60,4,8.95,clear sky
344,Filingue,NE,2022-02-03 02:27:27,14.3521,3.3168,64.18,14,0,9.91,clear sky
345,Am Timan,TD,2022-02-03 02:27:27,11.0297,20.2827,70.48,16,0,10.04,clear sky
346,Imperia,IT,2022-02-03 02:27:28,43.9667,7.7833,55.42,34,54,3.83,broken clouds
347,Karratha,AU,2022-02-03 02:23:36,-20.7377,116.8463,88.56,54,46,11.1,scattered clouds
348,Arlit,NE,2022-02-03 02:27:29,18.7369,7.3853,58.98,17,0,12.55,clear sky
349,Fort Nelson,CA,2022-02-03 02:27:30,58.8053,-122.7002,-8.01,77,100,8.05,light snow
350,Nikolayevsk-Na-Amure,RU,2022-02-03 02:27:30,53.1406,140.73,1.76,92,100,8.79,overcast clouds
351,Araci,BR,2022-02-03 02:27:31,-11.3333,-38.9667,74.28,81,12,7.36,few clouds
352,Keskin,TR,2022-02-03 02:27:31,39.6731,33.6136,23.94,97,100,3.42,overcast clouds
353,Lukovo,MK,2022-02-03 02:27:32,41.3494,20.6047,20.73,88,20,6.64,few clouds
354,La Asuncion,VE,2022-02-03 02:27:32,11.0333,-63.8628,87.53,66,0,13.8,clear sky
355,Conde,BR,2022-02-03 02:23:42,-7.2597,-34.9075,80.06,83,20,4.61,few clouds
356,Jibuti,DJ,2022-02-03 02:27:33,11.5,42.5,71.02,82,99,8.86,overcast clouds
357,Kapuskasing,CA,2022-02-03 02:26:22,49.4169,-82.4331,-11.11,76,0,1.14,clear sky
358,Saint-Pierre,RE,2022-02-03 02:27:34,-21.3393,55.4781,78.48,83,75,32.21,light rain
359,Nouadhibou,MR,2022-02-03 02:27:34,20.931,-17.0347,67.19,67,0,17.45,clear sky
360,Kirakira,SB,2022-02-03 02:27:35,-10.4544,161.9205,82.96,79,100,7.07,moderate rain
361,Puerto Colombia,CO,2022-02-03 02:27:35,10.9878,-74.9547,80.69,85,1,25.21,clear sky
362,Ginir,ET,2022-02-03 02:27:36,7.1333,40.7,56.88,55,100,4.32,overcast clouds
363,Tondi,IN,2022-02-03 02:27:36,9.7333,79.0167,74.16,65,3,3.47,clear sky
364,Grindavik,IS,2022-02-03 02:27:37,63.8424,-22.4338,23.47,86,20,6.91,few clouds
365,Tenenkou,ML,2022-02-03 02:27:37,14.4572,-4.9169,66.49,15,0,10.58,clear sky
366,Igboho,NG,2022-02-03 02:27:38,8.8333,3.75,70.43,16,89,3.2,overcast clouds
367,Chumikan,RU,2022-02-03 02:27:39,54.7183,135.315,-4.74,77,96,15.61,overcast clouds
368,Sao Joao Da Barra,BR,2022-02-03 02:27:39,-21.6403,-41.0511,74.21,92,100,7.63,moderate rain
369,Constitucion,CL,2022-02-03 02:27:40,-35.3333,-72.4167,57.76,87,70,4.97,broken clouds
370,Maniitsoq,GL,2022-02-03 02:27:40,65.4167,-52.9,9.18,62,100,21.0,overcast clouds
371,North Ogden,US,2022-02-03 02:27:41,41.3072,-111.9602,23.09,52,0,1.01,clear sky
372,Beira,MZ,2022-02-03 02:27:41,-19.8436,34.8389,73.99,90,26,4.72,scattered clouds
373,Polovinnoye,RU,2022-02-03 02:28:42,54.7914,65.9864,15.19,96,96,8.32,overcast clouds
374,Dwarka,IN,2022-02-03 02:28:42,22.2394,68.9678,70.79,65,15,16.73,few clouds
375,Winnemucca,US,2022-02-03 02:28:43,40.973,-117.7357,27.1,50,75,5.75,broken clouds
376,Bengkulu,ID,2022-02-03 02:28:43,-3.8004,102.2655,81.84,71,83,3.0,broken clouds
377,Baykit,RU,2022-02-03 02:28:44,61.67,96.37,5.59,98,100,2.42,light snow
378,Tautira,PF,2022-02-03 02:28:44,-17.7333,-149.15,87.82,78,27,20.6,light rain
379,Halifax,CA,2022-02-03 02:25:54,44.6453,-63.5724,36.21,91,83,3.0,broken clouds
380,Pevek,RU,2022-02-03 02:28:45,69.7008,170.3133,-6.36,73,2,3.91,clear sky
381,Pacific Grove,US,2022-02-03 02:28:45,36.6177,-121.9166,57.65,39,0,1.01,clear sky
382,Columbus,US,2022-02-03 02:27:15,39.9612,-82.9988,41.27,96,100,1.01,mist
383,Cooma,AU,2022-02-03 02:28:46,-36.2333,149.1333,60.57,51,75,14.97,broken clouds
384,Fort-Shevchenko,KZ,2022-02-03 02:28:46,44.5086,50.263,41.52,80,41,17.09,scattered clouds
385,Norman Wells,CA,2022-02-03 02:28:47,65.282,-126.8329,-27.36,68,75,2.3,broken clouds
386,Chimbote,PE,2022-02-03 02:28:47,-9.0853,-78.5783,70.41,81,33,8.68,scattered clouds
387,Samarai,PG,2022-02-03 02:28:48,-10.6167,150.6667,84.83,67,100,8.46,light rain
388,Fortuna,US,2022-02-03 02:28:48,40.5982,-124.1573,50.47,85,100,3.0,overcast clouds
389,Clyde River,CA,2022-02-03 02:24:07,70.4692,-68.5914,-16.37,76,100,17.27,light snow
390,Deputatskiy,RU,2022-02-03 02:28:49,69.3,139.9,-23.98,92,45,5.73,scattered clouds
391,Bonthe,SL,2022-02-03 02:28:49,7.5264,-12.505,75.85,91,38,4.81,scattered clouds
392,Worthington,US,2022-02-03 02:28:50,40.0931,-83.018,40.82,95,100,4.0,light rain
393,Turkistan,KZ,2022-02-03 02:28:50,43.0,68.0,29.08,83,0,2.04,clear sky
394,Wana,PK,2022-02-03 02:28:51,32.2989,69.5725,38.62,52,0,5.1,clear sky
395,Watsonville,US,2022-02-03 02:28:48,36.9102,-121.7569,58.14,33,0,3.44,clear sky
396,Koboko,UG,2022-02-03 02:28:52,3.4136,30.9599,68.79,35,99,3.24,overcast clouds
397,Port Blair,IN,2022-02-03 02:24:56,11.6667,92.75,78.84,78,40,4.61,mist
398,Lompoc,US,2022-02-03 02:25:10,34.6391,-120.4579,57.51,52,0,12.66,clear sky
399,Asyut,EG,2022-02-03 02:28:53,27.181,31.1837,53.94,40,0,5.59,clear sky
400,Atar,MR,2022-02-03 02:28:53,20.5169,-13.0499,70.47,22,0,7.05,clear sky
401,Zhigansk,RU,2022-02-03 02:28:54,66.7697,123.3711,-13.11,98,100,7.81,overcast clouds
402,Albano Laziale,IT,2022-02-03 02:28:54,41.726,12.6313,48.25,56,0,9.22,clear sky
403,Zhuhai,CN,2022-02-03 02:28:28,22.2769,113.5678,56.05,87,40,19.57,scattered clouds
404,Utete,TZ,2022-02-03 02:28:55,-7.986,38.758,72.93,98,99,0.34,overcast clouds
405,Pingliang,CN,2022-02-03 02:28:55,35.5392,106.6861,21.6,87,100,0.98,overcast clouds
406,Wegrow,PL,2022-02-03 02:28:56,52.3995,22.0163,31.55,88,51,9.28,broken clouds
407,Itarema,BR,2022-02-03 02:28:56,-2.9248,-39.9167,79.07,80,100,10.27,overcast clouds
408,Katsuura,JP,2022-02-03 02:28:57,35.1333,140.3,46.44,46,99,5.06,overcast clouds
409,San Ramon,US,2022-02-03 02:24:32,37.7799,-121.978,58.3,39,0,1.01,clear sky
410,Zeya,RU,2022-02-03 02:28:57,53.75,127.2667,-0.22,58,38,6.11,scattered clouds
411,South Lake Tahoe,US,2022-02-03 02:27:32,38.9332,-119.9844,29.05,42,0,0.0,clear sky
412,Sandnessjoen,NO,2022-02-03 02:28:58,66.0217,12.6316,24.78,65,99,5.01,overcast clouds
413,Bolgar,RU,2022-02-03 02:28:59,54.95,49.0667,31.91,98,100,0.25,snow
414,Kerema,PG,2022-02-03 02:28:59,-7.9631,145.7785,85.17,56,100,5.77,overcast clouds
415,Krasnoturinsk,RU,2022-02-03 02:28:59,59.7666,60.2086,14.9,94,100,4.94,overcast clouds
416,Honiara,SB,2022-02-03 02:29:00,-9.4333,159.95,81.73,84,100,7.27,heavy intensity rain
417,Surgana,IN,2022-02-03 02:29:00,20.5667,73.6167,59.88,49,29,3.13,scattered clouds
418,Dondo,MZ,2022-02-03 02:29:01,-19.6094,34.7431,71.37,94,24,3.18,few clouds
419,Barinas,VE,2022-02-03 02:29:01,8.6226,-70.2075,84.24,51,6,2.3,clear sky
420,Udachnyy,RU,2022-02-03 02:29:02,66.4167,112.4,-33.21,100,47,2.75,scattered clouds
421,Catamarca,AR,2022-02-03 02:30:02,-28.4696,-65.7852,76.05,53,5,1.14,clear sky
422,Tete,MZ,2022-02-03 02:30:03,-16.1564,33.5867,72.32,92,89,1.43,overcast clouds
423,Whyalla,AU,2022-02-03 02:30:04,-33.0333,137.5833,69.69,60,40,12.66,scattered clouds
424,Sri Aman,MY,2022-02-03 02:30:05,1.2376,111.4621,84.25,79,20,2.3,few clouds
425,Praia Da Vitoria,PT,2022-02-03 02:30:06,38.7333,-27.0667,55.76,94,40,5.19,scattered clouds
426,Henties Bay,NA,2022-02-03 02:30:07,-22.116,14.2845,67.86,85,1,5.41,clear sky
427,Havelock,US,2022-02-03 02:30:08,34.8791,-76.9013,53.98,85,100,4.0,overcast clouds
428,Middle Island,US,2022-02-03 02:30:09,40.8843,-72.9373,40.24,92,100,0.0,fog
429,Hargeysa,SO,2022-02-03 02:30:10,9.56,44.065,57.83,96,55,11.12,broken clouds
430,Hay River,CA,2022-02-03 02:30:10,60.8156,-115.7999,-25.62,75,0,4.61,clear sky
431,Tehri,IN,2022-02-03 02:30:11,30.3833,78.4833,50.29,85,100,3.09,light rain
432,Peniche,PT,2022-02-03 02:30:11,39.3558,-9.3811,56.62,80,100,1.79,overcast clouds
433,Elk City,US,2022-02-03 02:30:12,35.412,-99.4043,16.48,86,100,17.27,light snow
434,Dunmore Town,BS,2022-02-03 02:30:12,25.5,-76.65,72.61,62,28,19.73,scattered clouds
435,Brufut,GM,2022-02-03 02:30:13,13.3814,-16.7518,71.65,89,6,9.64,clear sky
436,Gat,IL,2022-02-03 02:27:02,31.61,34.7642,55.4,52,0,4.27,clear sky
437,Ekhabi,RU,2022-02-03 02:30:14,53.5102,142.9671,4.46,93,100,26.46,light snow
438,Gwadar,PK,2022-02-03 02:30:14,25.1216,62.3254,65.52,31,0,16.87,clear sky
439,The Valley,AI,2022-02-03 02:30:15,18.217,-63.0578,78.66,76,2,15.79,clear sky
440,Sarkand,KZ,2022-02-03 02:30:16,45.41,79.9186,18.27,66,100,6.49,overcast clouds
441,Sao Felix Do Xingu,BR,2022-02-03 02:30:17,-6.6447,-51.995,71.08,98,65,1.21,broken clouds
442,Isiro,CD,2022-02-03 02:30:17,2.7739,27.616,67.42,46,100,0.98,overcast clouds
443,Kisangani,CD,2022-02-03 02:30:18,0.5167,25.2,72.66,79,100,1.63,overcast clouds
444,La Palma,US,2022-02-03 02:30:18,33.8464,-118.0467,61.68,17,0,5.99,clear sky
445,Ossora,RU,2022-02-03 02:30:19,59.2353,163.0719,12.87,74,100,9.71,overcast clouds
446,Santiago Del Estero,AR,2022-02-03 02:26:39,-27.7951,-64.2615,87.37,34,63,8.55,broken clouds
447,Vila Velha,BR,2022-02-03 02:30:20,-20.3297,-40.2925,76.95,94,75,1.01,broken clouds
448,Bahia Blanca,AR,2022-02-03 02:28:21,-38.7196,-62.2724,74.84,56,100,8.05,overcast clouds
449,Marfino,RU,2022-02-03 02:30:20,55.7028,37.3822,23.14,92,100,4.47,light snow
450,Carora,VE,2022-02-03 02:30:21,10.1755,-70.0827,73.71,77,48,8.01,scattered clouds
451,Sucua,EC,2022-02-03 02:30:21,-2.4667,-78.1667,66.22,90,48,3.22,scattered clouds
452,Digapahandi,IN,2022-02-03 02:30:22,19.3667,84.5833,73.24,67,32,1.34,scattered clouds
453,Balykshi,KZ,2022-02-03 02:30:22,47.0667,51.8667,30.2,100,40,0.0,mist
454,Beaune,FR,2022-02-03 02:30:23,47.0833,4.75,40.62,93,100,1.88,overcast clouds
455,Bage,BR,2022-02-03 02:26:26,-31.3314,-54.1069,74.98,78,0,9.22,clear sky
456,Tilichiki,RU,2022-02-03 02:30:24,60.4667,166.1,5.94,80,91,10.07,overcast clouds
457,Wajid,SO,2022-02-03 02:30:24,3.8093,43.2471,73.56,69,100,16.24,overcast clouds
458,Jiaojiang,CN,2022-02-03 02:30:25,28.6803,121.4428,43.0,91,100,8.55,light rain
459,Nioaque,BR,2022-02-03 02:30:25,-21.1353,-55.83,72.66,97,88,4.36,overcast clouds
460,Fairbanks,US,2022-02-03 02:30:26,64.8378,-147.7164,-19.98,70,0,0.0,clear sky
461,Yinchuan,CN,2022-02-03 02:30:26,38.4681,106.2731,23.41,20,100,9.08,overcast clouds
462,Neryungri,RU,2022-02-03 02:30:27,56.6709,124.6491,-8.43,91,100,11.88,overcast clouds
463,Ylivieska,FI,2022-02-03 02:30:27,64.0833,24.55,9.32,98,78,2.04,broken clouds
464,Preobrazheniye,RU,2022-02-03 02:30:28,42.9019,133.9064,17.89,45,1,9.51,clear sky
465,Ambon,ID,2022-02-03 02:30:28,-3.6954,128.1814,89.74,58,20,9.22,few clouds
466,Kupang,ID,2022-02-03 02:30:29,-10.1667,123.5833,82.09,77,20,12.57,light rain
467,San Cristobal,VE,2022-02-03 02:29:09,7.7669,-72.225,73.58,60,8,1.86,clear sky
468,Clarence Town,AU,2022-02-03 02:31:29,-32.5833,151.7833,75.15,79,100,7.45,overcast clouds
469,Zhezkazgan,KZ,2022-02-03 02:31:30,47.8043,67.7144,1.38,85,0,8.95,clear sky
470,Mayo,US,2022-02-03 02:31:30,38.8876,-76.5119,45.09,88,100,0.0,overcast clouds
471,Naze,JP,2022-02-03 02:29:02,28.3667,129.4833,54.52,84,100,22.03,overcast clouds
472,Seoul,KR,2022-02-03 02:27:32,37.5683,126.9778,31.39,39,0,8.05,clear sky
473,Meulaboh,ID,2022-02-03 02:31:31,4.1363,96.1285,82.72,70,31,3.33,scattered clouds
474,Arandis,NA,2022-02-03 02:31:32,-22.4167,14.9667,61.47,80,3,2.39,clear sky
475,Nuuk,GL,2022-02-03 02:31:33,64.1835,-51.7216,18.21,53,100,12.66,light shower snow
476,Neiafu,TO,2022-02-03 02:31:33,-18.65,-173.9833,84.88,70,75,5.75,broken clouds
477,Olafsvik,IS,2022-02-03 02:31:34,64.8945,-23.7142,28.56,52,18,2.46,few clouds
478,Maceio,BR,2022-02-03 02:31:34,-9.6658,-35.7353,78.24,88,20,3.44,few clouds
479,Gao,ML,2022-02-03 02:31:35,16.6362,1.637,61.07,14,21,12.19,few clouds
480,Kurim,CZ,2022-02-03 02:31:35,49.2985,16.5314,38.43,75,96,1.01,overcast clouds
481,North Platte,US,2022-02-03 02:31:36,41.1239,-100.7654,10.29,37,100,5.01,overcast clouds
482,Yerbogachen,RU,2022-02-03 02:31:37,61.2767,108.0108,-0.53,96,100,6.31,overcast clouds
483,Turba,EE,2022-02-03 02:31:37,59.0831,24.225,24.69,93,100,5.75,overcast clouds
484,Bathsheba,BB,2022-02-03 02:31:38,13.2167,-59.5167,77.61,78,40,19.57,scattered clouds
485,San Jose,US,2022-02-03 02:30:30,37.3394,-121.895,59.43,35,0,6.91,clear sky
486,Ukwa,IN,2022-02-03 02:31:39,21.9667,80.4667,67.03,35,0,3.15,clear sky
487,Kalmunai,LK,2022-02-03 02:31:39,7.4167,81.8167,77.77,69,53,3.29,broken clouds
488,Carman,CA,2022-02-03 02:30:56,49.4992,-98.0016,-12.66,64,6,8.05,clear sky
489,Lagoa,PT,2022-02-03 02:31:40,39.05,-27.9833,57.45,72,2,3.0,clear sky
490,Mantamados,GR,2022-02-03 02:31:40,39.3117,26.3339,41.29,92,100,11.34,overcast clouds
491,Pampa,US,2022-02-03 02:31:41,35.5362,-100.9599,12.34,92,100,18.41,overcast clouds
492,Carauari,BR,2022-02-03 02:31:42,-4.8828,-66.8958,73.33,99,100,2.59,moderate rain
493,Sayyan,YE,2022-02-03 02:31:42,15.1718,44.3244,46.76,60,93,4.27,overcast clouds
494,Glossop,GB,2022-02-03 02:31:43,53.4432,-1.949,47.32,86,100,8.16,overcast clouds
495,Alekseyevsk,RU,2022-02-03 02:31:43,57.8406,108.3492,4.87,93,97,4.52,overcast clouds
496,Niono,ML,2022-02-03 02:31:43,14.2526,-5.993,65.07,15,2,10.49,clear sky
497,Broome,US,2022-02-03 02:28:09,42.2506,-75.833,40.37,74,100,1.99,overcast clouds
498,Vadso,NO,2022-02-03 02:31:44,70.0744,29.7487,2.28,68,100,11.92,overcast clouds
499,Robertsport,LR,2022-02-03 02:31:45,6.7533,-11.3686,77.18,88,12,6.62,few clouds
500,Kautokeino,NO,2022-02-03 02:31:45,69.0125,23.0412,7.3,97,100,3.65,light snow
501,Tambacounda,SN,2022-02-03 02:31:46,13.7539,-13.7586,77.05,16,0,6.91,clear sky
502,Christchurch,NZ,2022-02-03 02:29:41,-43.5333,172.6333,76.32,77,100,5.01,overcast clouds
503,Cootamundra,AU,2022-02-03 02:31:46,-34.65,148.0333,73.94,32,1,12.26,clear sky
504,Jiexiu,CN,2022-02-03 02:29:54,37.0244,111.9125,27.36,36,56,3.31,broken clouds
505,Gorom-Gorom,BF,2022-02-03 02:31:47,14.4439,-0.2361,64.44,15,1,9.69,clear sky
506,Kahului,US,2022-02-03 02:30:51,20.8947,-156.47,83.46,71,20,11.5,few clouds
507,Calvia,ES,2022-02-03 02:31:48,39.5657,2.5062,50.07,64,2,1.5,clear sky
508,Conceicao Do Araguaia,BR,2022-02-03 02:31:49,-8.2578,-49.2647,73.02,94,15,3.85,few clouds
509,Mehamn,NO,2022-02-03 02:31:15,71.0357,27.8492,25.56,75,100,11.27,light snow
510,Kurilsk,RU,2022-02-03 02:31:49,45.2333,147.8833,23.16,72,100,17.22,light snow
511,Jalu,LY,2022-02-03 02:32:50,29.0331,21.5482,50.5,67,20,20.38,few clouds
512,Najran,SA,2022-02-03 02:32:50,17.4924,44.1277,52.45,43,61,2.37,broken clouds
513,Chibombo,ZM,2022-02-03 02:32:51,-14.6569,28.0706,63.66,98,100,3.91,overcast clouds
514,Qui Nhon,VN,2022-02-03 02:32:51,13.7667,109.2333,76.62,78,80,12.28,broken clouds
515,Deer Lake,CA,2022-02-03 02:32:52,49.1667,-57.4316,22.86,68,75,12.66,broken clouds
516,Hurricane,US,2022-02-03 02:28:04,37.1753,-113.2899,36.7,31,0,8.86,clear sky
517,Port Hedland,AU,2022-02-03 02:32:53,-20.3167,118.5667,93.25,27,95,12.66,overcast clouds
518,Kot Addu,PK,2022-02-03 02:29:05,30.4692,70.9671,51.66,55,0,9.48,clear sky
519,Kurumkan,RU,2022-02-03 02:32:53,54.3,110.3,-12.19,96,78,1.74,broken clouds
520,Alta Floresta,BR,2022-02-03 02:32:54,-9.8756,-56.0861,71.35,95,72,1.97,moderate rain
521,Santa Catarina De Tepehuanes,MX,2022-02-03 02:32:54,25.35,-105.7333,44.33,57,42,8.3,scattered clouds
522,Anahuac,MX,2022-02-03 02:32:55,27.2333,-100.15,71.1,84,91,20.71,overcast clouds
523,Porto Torres,IT,2022-02-03 02:32:55,40.835,8.3972,44.78,87,17,10.98,few clouds
524,Barra Patuca,HN,2022-02-03 02:32:56,15.8,-84.2833,76.51,80,0,10.65,clear sky
525,Koutiala,ML,2022-02-03 02:32:56,12.3917,-5.4642,68.65,15,9,8.01,clear sky
526,Agadir,MA,2022-02-03 02:32:57,30.4202,-9.5982,61.25,38,5,4.52,clear sky
527,Dahuk,IQ,2022-02-03 02:32:57,36.8695,42.994,40.1,53,100,5.19,overcast clouds
528,Cayenne,GF,2022-02-03 02:32:58,4.9333,-52.3333,78.1,89,75,1.99,broken clouds
529,Dhidhdhoo,MV,2022-02-03 02:29:33,6.8833,73.1,81.09,67,16,7.45,few clouds
530,Calama,CL,2022-02-03 02:30:12,-22.4667,-68.9333,55.89,22,0,6.91,clear sky
531,Nueva Concepcion,GT,2022-02-03 02:32:59,14.2,-91.3,79.7,79,21,1.92,few clouds
532,Salta,AR,2022-02-03 02:29:15,-24.7859,-65.4117,71.58,78,40,1.01,scattered clouds
533,Dudinka,RU,2022-02-03 02:32:59,69.4058,86.1778,-15.27,100,100,5.26,overcast clouds
534,Fare,PF,2022-02-03 02:33:00,-16.7,-151.0167,81.18,76,47,19.73,scattered clouds
535,La Libertad,EC,2022-02-03 02:33:00,-2.2333,-80.9,76.41,76,56,11.16,broken clouds
536,Sabang,ID,2022-02-03 02:33:01,5.8933,95.3214,82.02,73,15,13.87,few clouds
537,Axim,GH,2022-02-03 02:33:01,4.8699,-2.2405,78.44,82,76,2.53,light rain
538,Romitan,UZ,2022-02-03 02:33:02,39.9343,64.3814,30.15,93,0,4.61,clear sky
539,Santa Isabel,BR,2022-02-03 02:29:44,-23.3156,-46.2214,70.9,99,100,2.17,overcast clouds
540,Calabozo,VE,2022-02-03 02:33:02,8.9242,-67.4293,84.96,47,75,7.65,broken clouds
541,Batemans Bay,AU,2022-02-03 02:33:03,-35.7167,150.1833,75.2,47,11,11.12,few clouds
542,Natal,BR,2022-02-03 02:33:04,-5.795,-35.2094,82.62,78,20,8.05,few clouds
543,Okato,NZ,2022-02-03 02:33:04,-39.2,173.8833,76.91,74,88,11.97,overcast clouds
544,Aklavik,CA,2022-02-03 02:30:41,68.2191,-135.0107,-24.77,98,100,4.18,overcast clouds
545,Tabou,CI,2022-02-03 02:33:05,4.423,-7.3528,77.36,84,19,1.81,light rain
546,Sinnamary,GF,2022-02-03 02:33:05,5.3833,-52.95,77.76,82,100,10.89,overcast clouds
547,Sangar,RU,2022-02-03 02:33:06,63.9242,127.4739,-24.48,96,27,0.89,scattered clouds
548,Longyearbyen,SJ,2022-02-03 02:33:06,78.2186,15.6401,17.44,57,0,20.71,clear sky
549,Sakakah,SA,2022-02-03 02:30:41,29.9697,40.2064,51.37,44,98,6.69,overcast clouds
550,Rudnogorsk,RU,2022-02-03 02:33:07,57.2639,103.7519,-7.31,99,98,2.1,overcast clouds
551,Agaro,ET,2022-02-03 02:33:08,7.85,36.65,65.5,58,99,1.99,overcast clouds
552,Bartica,GY,2022-02-03 02:33:08,6.4,-58.6167,75.52,94,4,1.66,clear sky
553,Akyab,MM,2022-02-03 02:33:09,20.15,92.9,69.35,50,3,6.64,clear sky
554,Nantucket,US,2022-02-03 02:33:10,41.2835,-70.0995,42.85,100,100,7.25,overcast clouds
555,Satipo,PE,2022-02-03 02:33:10,-11.2522,-74.6386,70.11,91,87,1.63,overcast clouds
556,Cheremukhovo,RU,2022-02-03 02:33:11,60.3484,59.9851,15.26,94,100,3.56,overcast clouds
557,Avera,US,2022-02-03 02:34:11,33.194,-82.5271,60.31,90,100,6.11,overcast clouds
558,Tynda,RU,2022-02-03 02:34:12,55.1667,124.7167,-7.64,74,39,6.53,scattered clouds
559,Skagen,DK,2022-02-03 02:34:12,57.7209,10.5839,41.09,83,100,16.31,overcast clouds
560,Rumphi,MW,2022-02-03 02:34:13,-11.0186,33.8575,63.12,97,100,2.06,light rain
561,Kuytun,RU,2022-02-03 02:34:13,54.3419,101.5036,-7.49,99,79,2.13,broken clouds
562,Shalinskoye,RU,2022-02-03 02:34:14,55.7228,93.7594,0.54,94,50,4.25,scattered clouds
563,Sandpoint,US,2022-02-03 02:34:14,48.2766,-116.5533,22.68,76,100,0.0,overcast clouds
564,San Ignacio,BZ,2022-02-03 02:34:15,17.1561,-89.0714,75.34,94,0,4.61,clear sky
565,Fougamou,GA,2022-02-03 02:34:15,-1.2154,10.5838,73.53,96,100,1.36,light rain
566,Waipawa,NZ,2022-02-03 02:34:16,-41.4122,175.5153,72.23,62,99,12.55,overcast clouds
567,Del Rio,US,2022-02-03 02:34:16,29.3627,-100.8968,46.51,70,100,17.27,overcast clouds
568,Shingu,JP,2022-02-03 02:34:17,33.7333,135.9833,49.19,42,100,10.16,overcast clouds
569,Takaka,NZ,2022-02-03 02:34:17,-40.85,172.8,68.97,98,100,8.32,light rain
570,Pisco,PE,2022-02-03 02:34:18,-13.7,-76.2167,68.05,83,0,13.8,clear sky
571,Bandarbeyla,SO,2022-02-03 02:34:18,9.4942,50.8122,73.27,75,8,14.45,clear sky
572,Horki,BY,2022-02-03 02:34:19,54.2861,30.9842,23.22,97,100,3.8,light snow
573,Severo-Kurilsk,RU,2022-02-03 02:34:19,50.6789,156.125,30.7,77,100,9.71,overcast clouds
574,Ostrovnoy,RU,2022-02-03 02:34:20,68.0531,39.5131,20.16,90,100,14.52,overcast clouds
575,Novyy Urengoy,RU,2022-02-03 02:34:20,66.0833,76.6333,-3.95,99,100,13.11,light snow
576,Kununurra,AU,2022-02-03 02:34:21,-15.7667,128.7333,85.98,66,40,6.91,scattered clouds
577,Walvis Bay,NA,2022-02-03 02:34:21,-22.9575,14.5053,68.09,78,1,6.13,clear sky
578,Tigil,RU,2022-02-03 02:34:22,57.8,158.6667,20.25,84,95,3.24,overcast clouds
579,Ikalamavony,MG,2022-02-03 02:34:22,-21.15,46.5833,61.81,87,97,4.45,overcast clouds
580,Gambo,CF,2022-02-03 02:34:23,4.6482,22.2633,76.91,29,100,2.73,overcast clouds
581,Kenai,US,2022-02-03 02:34:23,60.5544,-151.2583,22.03,81,40,10.36,scattered clouds
582,Payakumbuh,ID,2022-02-03 02:34:23,-0.2202,100.6308,78.78,78,80,2.75,broken clouds
583,Karaman,TR,2022-02-03 02:34:24,37.0833,33.25,33.1,91,60,16.73,broken clouds
584,Nalut,LY,2022-02-03 02:34:24,30.3333,10.85,42.49,55,14,9.57,few clouds
585,Qianguo,CN,2022-02-03 02:34:25,45.1171,124.8568,5.02,72,15,7.72,few clouds
586,Caceres,ES,2022-02-03 02:34:26,39.522,-6.3748,40.8,82,85,2.73,overcast clouds
587,Hinton,CA,2022-02-03 02:30:16,53.4001,-117.5857,10.11,88,100,4.45,overcast clouds
588,Zheleznodorozhnyy,RU,2022-02-03 02:34:26,55.7503,38.0042,23.41,98,99,3.69,light snow
589,Ahipara,NZ,2022-02-03 02:31:15,-35.1667,173.1667,75.38,65,89,14.2,overcast clouds
590,Jiayuguan,CN,2022-02-03 02:34:27,39.8167,98.3,23.97,30,32,5.26,scattered clouds
591,Dodola,ET,2022-02-03 02:34:28,6.9833,39.1833,50.27,59,99,1.36,overcast clouds
592,Praia,CV,2022-02-03 02:34:28,14.9215,-23.5087,73.94,56,1,21.85,clear sky
593,Wahiawa,US,2022-02-03 02:29:57,21.5028,-158.0236,77.32,63,100,0.0,overcast clouds
594,Carlsbad,US,2022-02-03 02:29:46,33.1581,-117.3506,61.95,19,0,3.0,clear sky
595,Nova Olimpia,BR,2022-02-03 02:34:03,-14.7972,-57.2881,72.63,95,61,3.69,light rain
596,Macheng,CN,2022-02-03 02:34:29,31.1783,115.0319,41.56,61,97,0.89,overcast clouds
597,Yurla,RU,2022-02-03 02:34:30,59.3259,54.3223,17.2,95,100,6.87,overcast clouds
598,Geraldton,AU,2022-02-03 02:34:30,-28.7667,114.6,99.01,12,0,28.77,clear sky
599,Mountain Home,US,2022-02-03 02:34:31,43.133,-115.6912,29.14,100,100,4.61,overcast clouds
600,Roebourne,AU,2022-02-03 02:31:04,-20.7833,117.1333,89.55,48,76,10.74,broken clouds
601,Port Antonio,JM,2022-02-03 02:34:32,18.18,-76.4612,78.71,84,21,6.06,few clouds
602,Kopavogur,IS,2022-02-03 02:34:32,64.1123,-21.913,23.22,86,0,5.75,clear sky
603,Zyryanka,RU,2022-02-03 02:35:32,65.75,150.85,-14.67,95,100,6.71,overcast clouds
604,Asau,RO,2022-02-03 02:35:33,46.4333,26.4,25.72,86,100,4.56,overcast clouds
605,Nyurba,RU,2022-02-03 02:33:14,63.2842,118.3319,-23.42,99,99,3.2,overcast clouds
606,La Baule-Escoublac,FR,2022-02-03 02:35:34,47.2922,-2.364,44.87,97,100,6.91,mist
607,Makokou,GA,2022-02-03 02:35:34,0.5738,12.8642,69.42,96,100,2.59,overcast clouds
608,Coahuayana,MX,2022-02-03 02:35:34,18.7333,-103.6833,76.48,83,0,2.39,clear sky
609,Armidale,AU,2022-02-03 02:35:35,-30.5167,151.65,59.81,92,100,7.16,overcast clouds
610,Itupiranga,BR,2022-02-03 02:35:35,-5.1347,-49.3267,72.54,96,99,1.16,overcast clouds
611,Ciudad Bolivar,VE,2022-02-03 02:35:36,8.1222,-63.5497,80.1,64,72,14.38,broken clouds
612,Kuala Kedah,MY,2022-02-03 02:35:36,6.1,100.3,84.18,89,20,3.44,few clouds
613,Guadalupe,MX,2022-02-03 02:35:37,25.6833,-100.25,75.25,68,0,3.44,clear sky
614,Dauphin,CA,2022-02-03 02:35:37,51.1494,-100.0502,-16.46,63,0,17.27,clear sky
615,Augusto Correa,BR,2022-02-03 02:35:38,-1.0217,-46.635,75.36,93,97,3.06,overcast clouds
616,Puerto Escondido,MX,2022-02-03 02:35:38,15.85,-97.0667,79.63,69,20,5.75,few clouds
617,Millinocket,US,2022-02-03 02:35:38,45.6573,-68.7098,39.42,93,100,4.61,mist
618,Katobu,ID,2022-02-03 02:35:39,-4.9408,122.5276,85.1,64,100,3.91,overcast clouds
619,Richards Bay,ZA,2022-02-03 02:35:39,-28.783,32.0377,75.7,84,2,15.05,clear sky
620,Tateyama,JP,2022-02-03 02:35:40,34.9833,139.8667,52.14,48,99,6.87,overcast clouds
621,Lovozero,RU,2022-02-03 02:35:40,68.005,35.0117,14.22,97,100,2.62,light snow
622,Poptun,GT,2022-02-03 02:35:41,16.3311,-89.4169,66.83,94,2,5.75,clear sky
623,Guadalupe Y Calvo,MX,2022-02-03 02:35:41,26.1,-106.9667,30.87,99,100,3.02,snow
624,Abeche,TD,2022-02-03 02:35:42,13.8292,20.8324,61.45,13,11,9.26,few clouds
625,Dingle,PH,2022-02-03 02:35:42,10.9995,122.6711,83.93,69,76,13.82,broken clouds
626,Port Said,EG,2022-02-03 02:35:43,31.2565,32.2841,59.07,53,0,15.23,clear sky
627,Jepelacio,PE,2022-02-03 02:35:43,-6.1167,-76.95,63.55,87,82,0.98,broken clouds
628,Udaipura,IN,2022-02-03 02:35:44,23.0833,78.5,65.48,43,1,3.85,clear sky
629,Alugan,PH,2022-02-03 02:35:44,12.2188,125.4808,80.31,84,96,13.49,overcast clouds
630,Majene,ID,2022-02-03 02:35:45,-3.5403,118.9707,84.56,67,100,2.04,overcast clouds
631,Blytheville,US,2022-02-03 02:35:45,35.9273,-89.919,33.85,89,100,11.01,mist
632,Penzance,GB,2022-02-03 02:35:07,50.1186,-5.5371,47.08,83,100,11.34,overcast clouds
633,Marzuq,YE,2022-02-03 02:33:47,14.4,46.4667,57.31,42,14,3.2,few clouds
634,Emerald,AU,2022-02-03 02:35:46,-23.5333,148.1667,90.34,74,100,9.22,overcast clouds
635,Altinopolis,BR,2022-02-03 02:35:47,-21.0256,-47.3739,69.15,95,100,2.48,overcast clouds
636,Tanda,IN,2022-02-03 02:35:47,26.55,82.65,57.6,61,87,10.45,overcast clouds
637,Haines Junction,CA,2022-02-03 02:35:48,60.7522,-137.5108,-11.25,77,100,2.3,overcast clouds
638,Algiers,DZ,2022-02-03 02:33:39,36.7525,3.042,39.02,81,0,3.44,clear sky
639,Bonavista,CA,2022-02-03 02:35:49,48.6499,-53.1147,24.12,71,43,20.56,scattered clouds
640,Areosa,PT,2022-02-03 02:35:49,41.7178,-8.8571,53.33,77,99,7.43,overcast clouds
641,Urubicha,BO,2022-02-03 02:35:50,-15.3833,-62.95,72.37,93,10,2.64,clear sky
642,Jiazi,CN,2022-02-03 02:35:50,22.8779,116.067,55.2,84,100,13.71,light rain
643,Moyobamba,PE,2022-02-03 02:35:51,-6.05,-76.9667,65.35,88,87,1.21,overcast clouds
644,Gayeri,BF,2022-02-03 02:35:52,12.6497,0.4931,65.97,13,5,8.32,clear sky
645,Baghmara,IN,2022-02-03 02:35:52,23.795,86.2085,65.84,44,56,5.86,broken clouds
646,Sandakan,MY,2022-02-03 02:35:53,5.8402,118.1179,83.88,79,20,8.01,few clouds
647,Port Hueneme,US,2022-02-03 02:35:53,34.1478,-119.1951,60.58,28,0,4.61,clear sky
648,Batouri,CM,2022-02-03 02:35:54,4.4333,14.3667,67.78,37,37,1.34,scattered clouds
649,Harnosand,SE,2022-02-03 02:36:54,62.6323,17.9379,3.2,89,77,6.26,broken clouds
650,Ulaanbaatar,MN,2022-02-03 02:35:06,47.9077,106.8832,-14.67,76,75,0.0,broken clouds
651,Toyooka,JP,2022-02-03 02:36:55,35.5333,134.8333,39.31,81,75,5.75,mist
652,Saint-Georges,GD,2022-02-03 02:36:55,12.0564,-61.7485,78.48,78,20,17.27,few clouds
653,Ewo,CG,2022-02-03 02:36:56,-0.8725,14.8206,74.46,83,100,4.25,moderate rain
654,Ust-Kulom,RU,2022-02-03 02:36:56,61.6864,53.6902,21.11,95,100,6.15,overcast clouds
655,Ormara,PK,2022-02-03 02:36:57,25.2088,64.6357,64.87,31,7,27.65,clear sky
656,Lincoln,US,2022-02-03 02:31:58,40.8,-96.667,14.38,42,75,3.0,broken clouds
657,Talara,PE,2022-02-03 02:36:57,-4.5772,-81.2719,72.9,79,77,14.81,broken clouds
658,Grand Bank,CA,2022-02-03 02:36:58,47.0999,-55.765,25.99,75,70,15.21,broken clouds
659,Chisec,GT,2022-02-03 02:36:58,15.8167,-90.2833,70.9,83,0,2.91,clear sky
660,Caravelas,BR,2022-02-03 02:36:59,-17.7125,-39.2481,75.45,91,17,3.4,few clouds
661,Hlipiceni,RO,2022-02-03 02:36:59,47.6,27.15,39.7,77,71,10.45,broken clouds
662,Morro Bay,US,2022-02-03 02:37:00,35.3658,-120.8499,57.65,35,0,1.01,clear sky
663,Kawalu,ID,2022-02-03 02:32:11,-7.3817,108.2082,87.26,56,27,2.13,scattered clouds
664,Murray Bridge,AU,2022-02-03 02:36:15,-35.1167,139.2667,77.68,45,4,18.52,clear sky
665,Puerto Leguizamo,CO,2022-02-03 02:37:01,-0.1934,-74.7819,75.0,73,37,1.81,scattered clouds
666,Nagpur,IN,2022-02-03 02:37:01,21.15,79.1,60.82,94,1,0.0,mist
667,Kiruna,SE,2022-02-03 02:37:02,67.8557,20.2251,0.52,92,100,0.0,overcast clouds
668,Casablanca,MA,2022-02-03 02:37:02,33.5928,-7.6192,60.33,67,95,4.0,overcast clouds
669,Vuktyl,RU,2022-02-03 02:37:03,63.8567,57.3094,17.42,96,99,6.11,overcast clouds
670,Derzhavinsk,KZ,2022-02-03 02:37:03,51.1,66.3167,6.31,93,88,5.3,overcast clouds
671,Alyangula,AU,2022-02-03 02:37:04,-13.8483,136.4192,87.67,70,100,10.36,overcast clouds
672,Gamba,GA,2022-02-03 02:37:04,-2.65,10.0,76.53,86,100,4.45,light rain
673,Veraval,IN,2022-02-03 02:37:05,20.9,70.3667,72.48,79,30,12.3,scattered clouds
674,Stornoway,GB,2022-02-03 02:37:05,58.2093,-6.3865,48.16,92,75,7.0,broken clouds
675,Palestina,PS,2022-02-03 02:37:06,31.9216,35.2033,46.94,62,0,3.89,clear sky
676,Sao Geraldo Do Araguaia,BR,2022-02-03 02:37:06,-6.4006,-48.555,72.93,95,70,1.88,broken clouds
677,Lokosovo,RU,2022-02-03 02:37:07,61.1333,74.8167,19.81,92,99,11.92,overcast clouds
678,Iracoubo,GF,2022-02-03 02:37:07,5.4802,-53.2011,77.9,81,100,10.96,overcast clouds
679,Canutama,BR,2022-02-03 02:37:08,-6.5339,-64.3831,73.33,99,100,1.28,moderate rain
680,Ukiah,US,2022-02-03 02:37:08,39.1502,-123.2078,53.49,63,0,3.44,clear sky
681,Oranienburg,DE,2022-02-03 02:37:09,52.75,13.2333,37.27,92,63,6.85,broken clouds
682,Aswan,EG,2022-02-03 02:37:09,24.0934,32.907,56.39,36,0,5.84,clear sky
683,Kure,JP,2022-02-03 02:37:10,34.2333,132.5667,47.48,40,86,7.92,overcast clouds
684,Vetapalem,IN,2022-02-03 02:37:10,15.7833,80.3167,77.31,63,13,8.75,few clouds
685,Cairns,AU,2022-02-03 02:37:11,-16.9167,145.7667,94.1,63,100,6.91,overcast clouds
686,Ferkessedougou,CI,2022-02-03 02:37:11,9.6,-5.2,67.8,8,23,5.7,few clouds
687,Zaraza,VE,2022-02-03 02:37:12,9.3503,-65.3245,77.68,74,79,6.96,broken clouds
688,Libenge,CD,2022-02-03 02:37:12,3.65,18.6333,74.61,26,100,2.24,overcast clouds
689,Remedios,CU,2022-02-03 02:37:12,22.4947,-79.5458,72.52,79,2,16.87,clear sky
690,Isla Mujeres,MX,2022-02-03 02:37:13,21.2311,-86.731,78.85,83,0,15.35,clear sky
691,Lethem,GY,2022-02-03 02:37:14,3.3803,-59.7968,79.36,64,13,7.83,few clouds
692,Aksu,CN,2022-02-03 02:37:14,41.1231,80.2644,26.6,44,100,3.11,overcast clouds
693,Budogoshch,RU,2022-02-03 02:37:15,59.2816,32.4707,7.54,98,99,2.1,light snow
694,Arroyos Y Esteros,PY,2022-02-03 02:37:15,-25.0667,-57.1,89.35,51,65,6.35,broken clouds
695,Copiapo,CL,2022-02-03 02:37:15,-27.3667,-70.3333,66.72,65,0,1.28,clear sky
696,Lowestoft,GB,2022-02-03 02:37:16,52.4752,1.7516,47.3,94,100,10.42,overcast clouds
697,Irawan,PH,2022-02-03 02:37:16,9.8012,118.6923,83.82,69,97,6.33,overcast clouds
698,Villarrubia De Los Ojos,ES,2022-02-03 02:38:17,39.2209,-3.608,43.99,62,99,3.42,overcast clouds
699,Kaeo,NZ,2022-02-03 02:38:17,-35.1,173.7833,75.33,80,89,11.41,overcast clouds
700,Teya,RU,2022-02-03 02:37:35,60.3778,92.6267,14.27,91,100,6.73,overcast clouds
701,Wembley,AU,2022-02-03 02:38:18,-31.9333,115.8,92.19,24,0,19.57,clear sky
702,Nogliki,RU,2022-02-03 02:38:19,51.8333,143.1667,5.72,93,100,23.24,snow
703,Vesyegonsk,RU,2022-02-03 02:38:19,58.664,37.2604,6.64,99,95,2.91,overcast clouds
704,Fethiye,TR,2022-02-03 02:38:19,36.6217,29.1164,53.47,87,100,9.84,overcast clouds
705,Puerto Carreno,CO,2022-02-03 02:38:20,6.189,-67.4859,76.24,83,93,4.72,overcast clouds
706,Shubarkuduk,KZ,2022-02-03 02:38:20,49.1447,56.4872,17.13,88,72,10.11,broken clouds
707,Bilibino,RU,2022-02-03 02:38:21,68.0546,166.4372,-2.74,64,0,5.03,clear sky
708,Ilembula,TZ,2022-02-03 02:38:22,-8.9,34.5833,60.76,95,100,0.65,overcast clouds
709,Madimba,TZ,2022-02-03 02:38:22,-10.4,40.3333,77.38,88,97,6.42,moderate rain
710,Camacha,PT,2022-02-03 02:38:22,33.0833,-16.3333,63.54,88,40,9.22,scattered clouds
711,Sawtell,AU,2022-02-03 02:38:23,-30.3833,153.1,72.19,95,100,14.97,light rain
712,Oxford,GB,2022-02-03 02:38:23,51.7522,-1.256,47.8,86,100,1.99,overcast clouds
713,Tura,IN,2022-02-03 02:38:24,25.5198,90.2201,64.71,43,69,1.59,broken clouds
714,Luau,AO,2022-02-03 02:38:24,-10.7073,22.2247,64.44,96,100,3.56,overcast clouds
715,Konevo,RU,2022-02-03 02:38:25,62.1215,39.3192,11.91,97,100,1.45,light snow
716,Lodja,CD,2022-02-03 02:38:25,-3.4833,23.4333,68.4,99,100,1.39,overcast clouds
717,Boa Vista,BR,2022-02-03 02:38:26,2.8197,-60.6733,84.18,58,75,11.5,broken clouds
718,Matara,LK,2022-02-03 02:38:26,5.9485,80.5353,78.4,70,9,5.61,clear sky
719,Ilebo,CD,2022-02-03 02:38:27,-4.3167,20.5833,71.26,99,100,1.54,moderate rain
720,Biak,ID,2022-02-03 02:38:27,-0.9131,122.8766,84.2,61,100,0.92,overcast clouds